{
    "locations": [
        {
            "name": "Clement Diesel and Auto Repair",
            "address": "100 Glenn Dr Unit A-1, Sterling",
            "phone": "(703) 915-0722",
            "website": "https://www.clementdieselautorepair.com/",
            "placeID": "ChIJeaWY0G84tokRVDZIGMf-pIY",
            "url": "https://maps.google.com/?cid=9702159628322223700",
            "lat": 38.9918,
            "lng": -77.4243
        },
        {
            "name": "Dulles Truck Center",
            "address": "44894 Old Ox Rd, Sterling",
            "phone": "(703) 481-8785",
            "website": "http://www.dullesautoclinic.com/",
            "placeID": "ChIJV6C_6Zc4tokR4kSoCDAwwJw",
            "url": "https://maps.google.com/?cid=11295080848307012834",
            "lat": 38.9852,
            "lng": -77.4469
        },
        {
            "name": "B&C Diesel Services",
            "address": "21557 Blackwood Ct #150, Sterling",
            "phone": "(571) 375-2056",
            "website": "https://www.bcdieselservices.com/",
            "placeID": "ChIJf5k6aa85tokRroerLiO9R8k",
            "url": "https://maps.google.com/?cid=14503769083774470062",
            "lat": 39.0196,
            "lng": -77.4168
        },
        {
            "name": "Road Runner Mobile Diesel Mechanic & Semi Repair",
            "address": "45660 Woodland Rd UNIT B, Sterling",
            "phone": "(571) 758-2118",
            "website": "https://road-runner-mobile-diesel-mechanic-semi.business.site/?utm_source=gmb&utm_medium=referral",
            "placeID": "ChIJl7zpjgc5tokRfJmWTGj8d0k",
            "url": "https://maps.google.com/?cid=5293977411889043836",
            "lat": 39.0205,
            "lng": -77.4202
        },
        {
            "name": "High-Tech Auto and Truck Center",
            "address": "4007 Westfax Dr D, Chantilly",
            "phone": "(703) 968-6648",
            "website": "https://hightechautoandtruck.com/",
            "placeID": "ChIJ70B3q6VGtokRFZvNt2Hxt2c",
            "url": "https://maps.google.com/?cid=7473707508642454293",
            "lat": 38.8996,
            "lng": -77.4559
        },
        {
            "name": "Ted Britt Truck Repair Center",
            "address": "14601 Flint Lee Rd, Chantilly",
            "phone": "(703) 454-0031",
            "website": "https://www.tedbrittchantilly.com/truck-repair-center.html",
            "placeID": "ChIJS-7AUqBGtokR0BIzuiMGSBY",
            "url": "https://maps.google.com/?cid=1605540017675113168",
            "lat": 38.8934,
            "lng": -77.4529
        },
        {
            "name": "Fleet Authority",
            "address": "3170 Draper Dr #10, Fairfax",
            "phone": "(703) 691-2100",
            "website": "http://www.fleetauthority.com/",
            "placeID": "ChIJiRA-3ANMtokR_Fe9vLZu5YA",
            "url": "https://maps.google.com/?cid=9287951537651144700",
            "lat": 38.8665,
            "lng": -77.2822
        },
        {
            "name": "Quality Fleet Services",
            "address": "23560 Pebble Run Pl, Sterling",
            "phone": "(703) 661-2111",
            "website": "http://qualityfleetservices.com/",
            "placeID": "ChIJNUoNUh9BtokRJtRI0XVWIY4",
            "url": "https://maps.google.com/?cid=10241562091639591974",
            "lat": 38.965,
            "lng": -77.5007
        },
        {
            "name": "Munday's Truck Repair",
            "address": "24402 Gum Spring Rd, Sterling",
            "phone": "(703) 327-8303",
            "website": null,
            "placeID": "ChIJwd6M6kpAtokRiSyfVBBl2Ns",
            "url": "https://maps.google.com/?cid=15841522810089319561",
            "lat": 38.9411,
            "lng": -77.5379
        },
        {
            "name": "JS's Auto & Truck services. 24/7",
            "address": "9806 Montauk Ave, Bethesda",
            "phone": "(240) 428-5387",
            "website": null,
            "placeID": "ChIJ3wcmlNLLt4kRe7mecxEnSww",
            "url": "https://maps.google.com/?cid=885844707616143739",
            "lat": 39.0174,
            "lng": -77.1293
        },
        {
            "name": "Service Tire Truck Center - Commercial Truck Tires at Manassas, VA",
            "address": "10324 Balls Ford Rd, Manassas",
            "phone": "(703) 530-8473",
            "website": "https://www.sttc.com/?utm_source=Google_My_Business&utm_medium=GMB_Organic&utm_campaign=GMB_Tracker",
            "placeID": "ChIJCWO4iNddtokROSBJ5qBWK-4",
            "url": "https://maps.google.com/?cid=17161906054083715129",
            "lat": 38.8024,
            "lng": -77.5067
        },
        {
            "name": "Truck Road Service",
            "address": "8817 Commerce Ct, Manassas",
            "phone": null,
            "website": null,
            "placeID": "ChIJecq4IYVbtokRuXo0aF7gmok",
            "url": "https://maps.google.com/?cid=9915484225689385657",
            "lat": 38.7599,
            "lng": -77.4605
        },
        {
            "name": "Truck Mobile Mechanic and tire service",
            "address": "6409 King Louis Dr, Alexandria",
            "phone": "(571) 918-8000",
            "website": "https://truck-mobile-mechanic-and-tire-service.business.site/?utm_source=gmb&utm_medium=referral",
            "placeID": "ChIJ35UsQ8Czt4kRRRYLmTRscmU",
            "url": "https://maps.google.com/?cid=7310024118337476165",
            "lat": 38.82,
            "lng": -77.1463
        },
        {
            "name": "Auto Truck and RV",
            "address": "689 Lofstrand Ln, Rockville",
            "phone": "(301) 251-0121",
            "website": "http://autotruckandrv.com/",
            "placeID": "ChIJdx7tiIXNt4kR8yAYwGhFa-k",
            "url": "https://maps.google.com/?cid=16819613549546971379",
            "lat": 39.0958,
            "lng": -77.1368
        },
        {
            "name": "KD Jones Truck Repair & Roadservice",
            "address": "9532 Liberia Ave suite 719, Manassas",
            "phone": "(703) 898-0313",
            "website": null,
            "placeID": "ChIJoyjoMZRbtokRxH4kXllmLFY",
            "url": "https://maps.google.com/?cid=6209450520254643908",
            "lat": 38.7508,
            "lng": -77.4506
        },
        {
            "name": "Light Truck Service Co",
            "address": "1327 E Gude Dr, Rockville",
            "phone": "(301) 424-4410",
            "website": "http://lighttruckservice.com/",
            "placeID": "ChIJxd0WrojNt4kR8TT3wvYJC0c",
            "url": "https://maps.google.com/?cid=5119196356874286321",
            "lat": 39.0966,
            "lng": -77.1357
        },
        {
            "name": "Just Dynafix Mobile Truck and Trailer Repair",
            "address": "4000 Connecticut Ave NW, Washington",
            "phone": null,
            "website": "https://www.justdynafix.com/24-7-Mobile-Truck-and-Trailer-Repair-In-Washington-DC",
            "placeID": "ChIJH8SaR3nJt4kRX7QIC0kIrIQ",
            "url": "https://maps.google.com/?cid=9560025218811475039",
            "lat": 38.9425,
            "lng": -77.0633
        },
        {
            "name": "Manassas Auto and Truck Mechanical Service and Diesel Repair Shop",
            "address": "9246 Sills Ct, Manassas",
            "phone": "(703) 330-6446",
            "website": null,
            "placeID": "ChIJR_ARgWpctokR_uNt7k0OK4I",
            "url": "https://maps.google.com/?cid=9379606376804639742",
            "lat": 38.7535,
            "lng": -77.4927
        },
        {
            "name": "MJ Robic Fleet Service",
            "address": "7840 Wellingford Dr, Manassas",
            "phone": "(571) 428-2881",
            "website": null,
            "placeID": "ChIJ3yUvUHxdtokR9Oipdtr1Em0",
            "url": "https://maps.google.com/?cid=7859614618357459188",
            "lat": 38.785,
            "lng": -77.559
        },
        {
            "name": "Virginia Fleet Services",
            "address": "6880 Wellington Rd, Manassas",
            "phone": "(703) 330-7272",
            "website": null,
            "placeID": "ChIJkTEXnYBntokRFrt2yUZ1UTQ",
            "url": "https://maps.google.com/?cid=3769923309973977878",
            "lat": 38.7813,
            "lng": -77.562
        }
    ],
    "city": {
        "spiralID": 2374799,
        "locations": [
            "ChIJeaWY0G84tokRVDZIGMf-pIY",
            "ChIJV6C_6Zc4tokR4kSoCDAwwJw",
            "ChIJf5k6aa85tokRroerLiO9R8k",
            "ChIJl7zpjgc5tokRfJmWTGj8d0k",
            "ChIJ70B3q6VGtokRFZvNt2Hxt2c",
            "ChIJS-7AUqBGtokR0BIzuiMGSBY",
            "ChIJiRA-3ANMtokR_Fe9vLZu5YA",
            "ChIJNUoNUh9BtokRJtRI0XVWIY4",
            "ChIJwd6M6kpAtokRiSyfVBBl2Ns",
            "ChIJ3wcmlNLLt4kRe7mecxEnSww",
            "ChIJCWO4iNddtokROSBJ5qBWK-4",
            "ChIJecq4IYVbtokRuXo0aF7gmok",
            "ChIJ35UsQ8Czt4kRRRYLmTRscmU",
            "ChIJdx7tiIXNt4kR8yAYwGhFa-k",
            "ChIJoyjoMZRbtokRxH4kXllmLFY",
            "ChIJxd0WrojNt4kR8TT3wvYJC0c",
            "ChIJH8SaR3nJt4kRX7QIC0kIrIQ",
            "ChIJR_ARgWpctokR_uNt7k0OK4I",
            "ChIJ3yUvUHxdtokR9Oipdtr1Em0",
            "ChIJkTEXnYBntokRFrt2yUZ1UTQ"
        ]
    }
}